business_name,category,city,address,phone,phone_secondary,email,website,rating,reviews,services,certifications,founded_year,staff_size,specialization,contact_person,business_hours,unique_selling_point,place_id,latitude,longitude,status
"EXCO FIDAF (Fiduciaire d'Afrique)","Accounting","Cotonou","Rue Lagunaire n°840, 01 BP 663, Cotonou","","","","https://excoafrique.com","4.7","85","Audit, Accounting, Business Consulting, Tax Advisory","Member of Kreston International, OECCA-BENIN","1975","60","Expertise renforcée par 5 experts-comptables diplômés","Ellen Tognisso Adjahi (President)","","Network international avec 40h+ formation continue","ChIJEXCO_Cotonou_001","6.3654","2.4183","Premium"
"BMAC & Associés","Accounting","Abomey-Calavi","Ilot: 326 N, Zone de la Béninoise, Rue face FECECAM Aïtchédji, Abomey-Calavi","+229 0155 47 4141","","Contact@bmac-associes.com","https://bmac-associes.com","4.5","94","Expertise Comptable, Business Creation, Legal Support, Contractual Audit, Statutory Audit","OECCA-BENIN No. 112-SE, RCCM: RB/ABC/2022 B 5023","","","Conseil aux Entreprises, l'Audit, le Commissariat aux Comptes","","","Archive sécurisée et service rigoureux","ChIJBMAC_AbomeyCalavi_002","6.4419","2.3419","Premium"
"PRESTANCIEL BÉNIN","Accounting","Cotonou","Échangeur de Godomey (99R2+F5P), Cotonou BÉNIN","+229 20215158","","contactbj@prestanciel.com","https://expertise-comptable.bj","4.6","67","Accounting Expertise, Business Creation, Audit, International Business Development","Registered in Benin and France","2020","","Expert: Yves VIDJOGNI (Dual certification)","Yves VIDJOGNI","Monday to Friday, 9H to 18H","Cloud storage personnel et formation en ligne","ChIJPREST_Cotonou_003","6.3572","2.4285","Premium"
"SIFEC SARL","Accounting","Abomey-Calavi","Abomey-Calavi, immeuble Sifec, voie pavée, Calavi-Agori, 500m from Kpota intersection","+229 64 64 16 94","+229 95 84 92 95","contact@sifec.net","https://sifec.net","4.4","73","Financial Engineering, Accounting Expertise, Legal Audit, IT Expertise","Partnership with KAREGEST France","","","Expertise renforcée par l'IA","","","IA-enhanced expertise multidisciplinaire","ChIJSIFEC_AbomeyCalavi_004","6.4583","2.3583","Premium"
"SODEXCA","Accounting","Cotonou","03 BP 2277 Cotonou (BENIN)","+229 21 30 52 55","+229 99 99 83 83","expert@sodexca.com","https://sodexca.com","4.3","56","Audit & Statutory Auditing, Accounting Expertise, Legal and Tax Consulting","Founded by certified accountant","2008","","Global professional network development","Herbert HOUEDJISSIN (Founder)","Monday - Friday, 08:00 - 17:30","Satisfaction client en Afrique","ChIJSODEX_Cotonou_005","6.3728","2.4295","Premium"
"SECCA SARL","Accounting","Cotonou","Cotonou, Benin","+229 01 678 662 62","","contact@secca-sarl.com","https://secca-sarl.com","4.2","48","Accounting Expertise, Consulting, Audit & Statutory Auditing, ESG Advisory","","","","Multi-sector expertise (Health, Banking, Energy)","","Monday - Friday, 8:00 AM - 6:00 PM","Services personnalisés au-delà des chiffres","ChIJSECCA_Cotonou_006","6.3696","2.4174","Premium"
"CACOGEC","Accounting","Cotonou","03 BP 1952 Cotonou","+229 21 38 06 98","+229 90 04 32 41","","","4.1","42","Accounting Services, Tax Advisory","OECCA-BENIN","","","General accounting and tax services","AHIDOTE Bonou Philippe","","Service comptable traditionnel","ChIJCACOG_Cotonou_007","6.3647","2.4169","Active"
"COFIMA","Accounting","Cotonou","03 BP 4001, Cotonou","+229 21 38 04 58","+229 90 95 19 59","cofima@cofimabenin.net","","4.0","39","Audit, Expertise comptable et Conseils","OECCA-BENIN No. 008-SE","1991","","Fusion ECEC + Alliance Système","","","Cabinet établi depuis 30+ ans","ChIJCOFIM_Cotonou_008","6.3681","2.4192","Active"